[{"registeredAt":"2023-02-03T17:42:36.263760127-05:00","server":{"name":"egress.usw.1","attributes":{"city":"El Segundo","country":"us","latitude":33.9192,"longitude":-118.4165,"region":"North America","state":"ca","tzOffset":-28800},"publicKey":"R/BMR6Rr5rzvp7vSIWdAtgAmOLK9m7CqTcDynblM3Us=","hostnames":[],"ips":["162.245.204.100"],"port":443}},{"registeredAt":"2023-02-03T17:42:36.613040955-05:00","server":{"name":"egress.euw.1","attributes":{"city":"Rotterdam","country":"nl","latitude":51.9225,"longitude":4.4792,"region":"Europe","state":"na","tzOffset":3600},"publicKey":"ocUfgaqaN/s/D3gTwJstipGh03T2v6wLL+aVtg3Viz4=","hostnames":[],"ips":["31.204.129.36"],"port":443}},{"registeredAt":"2023-02-03T17:42:34.946832238-05:00","server":{"name":"egress.euw.2","attributes":{"city":"Rotterdam","country":"nl","latitude":51.9225,"longitude":4.4792,"region":"Europe","state":"na","tzOffset":3600},"publicKey":"4PnM/V0CodegK44rd9fKTxxS9QDVTw13j8fxKsVud3s=","hostnames":[],"ips":["31.204.129.39"],"port":443}},{"registeredAt":"2023-02-03T17:42:35.130289666-05:00","server":{"name":"egress.use.1","attributes":{"city":"Newark","country":"us","latitude":40.7357,"longitude":-74.1724,"region":"North America","state":"nj","tzOffset":-18000},"publicKey":"L4gDTg3KqbhjjiN99n/Zmwxwmbv+P+n8ZZVL0v34cAs=","hostnames":[],"ips":["109.200.208.196"],"port":443}},{"registeredAt":"2023-02-03T17:42:35.913046706-05:00","server":{"name":"egress.use.2","attributes":{"city":"Newark","country":"us","latitude":40.7357,"longitude":-74.1724,"region":"North America","state":"nj","tzOffset":-18000},"publicKey":"q3YJJUwMNP31J8qSvMdVsxASKNcjrm8ep8cLcI0qViY=","hostnames":[],"ips":["109.200.208.198"],"port":443}},{"registeredAt":"2023-02-03T17:42:35.661113901-05:00","server":{"name":"egress.usw.2","attributes":{"city":"El Segundo","country":"us","latitude":33.9192,"longitude":-118.4165,"region":"North America","state":"ca","tzOffset":-28800},"publicKey":"8JjNmnFYZA+CnWAkbiucDrUJ70wl+Tl3O3ETkRgw028=","hostnames":[],"ips":["162.245.204.102"],"port":443}}]
